{
  "type": "FeatureCollection",
  "generator": "overpass-turbo",
  "copyright": "The data included in this document is from www.openstreetmap.org. The data is made available under ODbL.",
  "timestamp": "2015-11-17T02:46:02Z",
  "features": [
    {
      "type": "Feature",
      "id": "node/492189387",
      "properties": {
        "@id": "node/492189387",
        "amenity": "bicycle_rental",
        "capacity": "11",
        "name": "Plaza Rio de Janeiro",
        "operator": "Bikesantiago"
      },
      "geometry": {
        "type": "Point",
        "coordinates": [
          -70.5939179,
          -33.4323399
        ]
      }
    },
    {
      "type": "Feature",
      "id": "node/565471064",
      "properties": {
        "@id": "node/565471064",
        "amenity": "bicycle_rental",
        "capacity": "21",
        "name": "Municipalidad de Providencia",
        "operator": "Bikesantiago"
      },
      "geometry": {
        "type": "Point",
        "coordinates": [
          -70.6113023,
          -33.4327294
        ]
      }
    },
    {
      "type": "Feature",
      "id": "node/565471065",
      "properties": {
        "@id": "node/565471065",
        "amenity": "bicycle_rental",
        "capacity": "16",
        "name": "Ricardo Lyon / Pocuro",
        "operator": "Bikesantiago"
      },
      "geometry": {
        "type": "Point",
        "coordinates": [
          -70.6045793,
          -33.4352742
        ]
      }
    },
    {
      "type": "Feature",
      "id": "node/565471067",
      "properties": {
        "@id": "node/565471067",
        "amenity": "bicycle_rental",
        "capacity": "10",
        "name": "Metro Parque Bustamante",
        "operator": "Providencia"
      },
      "geometry": {
        "type": "Point",
        "coordinates": [
          -70.6319032,
          -33.4429885
        ]
      }
    },
    {
      "type": "Feature",
      "id": "node/565471068",
      "properties": {
        "@id": "node/565471068",
        "amenity": "bicycle_rental",
        "capacity": "14",
        "name": "Metro Francisco Bilbao",
        "operator": "Bikesantiago"
      },
      "geometry": {
        "type": "Point",
        "coordinates": [
          -70.586248,
          -33.430778
        ]
      }
    },
    {
      "type": "Feature",
      "id": "node/565471070",
      "properties": {
        "@id": "node/565471070",
        "amenity": "bicycle_rental",
        "capacity": "11",
        "name": "Duoc (Antonio Varas)",
        "operator": "Bikesantiago"
      },
      "geometry": {
        "type": "Point",
        "coordinates": [
          -70.6158245,
          -33.4333427
        ]
      }
    },
    {
      "type": "Feature",
      "id": "node/711930275",
      "properties": {
        "@id": "node/711930275",
        "amenity": "bicycle_rental",
        "capacity": "15",
        "name": "Metro Manuel Montt",
        "operator": "Bikesantiago"
      },
      "geometry": {
        "type": "Point",
        "coordinates": [
          -70.6195459,
          -33.42862
        ]
      }
    },
    {
      "type": "Feature",
      "id": "node/907587654",
      "properties": {
        "@id": "node/907587654",
        "amenity": "bicycle_rental",
        "capacity": "30",
        "name": "Metro Tobalaba",
        "operator": "Bikesantiago"
      },
      "geometry": {
        "type": "Point",
        "coordinates": [
          -70.6011251,
          -33.4192014
        ]
      }
    },
    {
      "type": "Feature",
      "id": "node/1292345623",
      "properties": {
        "@id": "node/1292345623",
        "amenity": "bicycle_rental",
        "capacity": "19",
        "name": "Metro Plaza Italia",
        "operator": "Bikesantiago"
      },
      "geometry": {
        "type": "Point",
        "coordinates": [
          -70.6330584,
          -33.4375431
        ]
      }
    },
    {
      "type": "Feature",
      "id": "node/2519844581",
      "properties": {
        "@id": "node/2519844581",
        "amenity": "bicycle_rental",
        "capacity": "15",
        "name": "Naciones Unidas",
        "operator": "Bikesantiago"
      },
      "geometry": {
        "type": "Point",
        "coordinates": [
          -70.6010364,
          -33.4069398
        ]
      }
    },
    {
      "type": "Feature",
      "id": "node/2519844582",
      "properties": {
        "@id": "node/2519844582",
        "amenity": "bicycle_rental",
        "capacity": "15",
        "name": "Nueva Costanera",
        "operator": "Bikesantiago"
      },
      "geometry": {
        "type": "Point",
        "coordinates": [
          -70.598556,
          -33.4033607
        ]
      }
    },
    {
      "type": "Feature",
      "id": "node/2519844583",
      "properties": {
        "@id": "node/2519844583",
        "amenity": "bicycle_rental",
        "capacity": "15",
        "name": "Paul Claudel",
        "operator": "Bikesantiago"
      },
      "geometry": {
        "type": "Point",
        "coordinates": [
          -70.5974508,
          -33.4049673
        ]
      }
    },
    {
      "type": "Feature",
      "id": "node/2519844584",
      "properties": {
        "@id": "node/2519844584",
        "amenity": "bicycle_rental",
        "capacity": "13",
        "name": "Las Nieves",
        "operator": "Bikesantiago"
      },
      "geometry": {
        "type": "Point",
        "coordinates": [
          -70.5941134,
          -33.4045928
        ]
      }
    },
    {
      "type": "Feature",
      "id": "node/2519844585",
      "properties": {
        "@id": "node/2519844585",
        "amenity": "bicycle_rental",
        "capacity": "15",
        "name": "Alonso de Cordova",
        "operator": "Bikesantiago"
      },
      "geometry": {
        "type": "Point",
        "coordinates": [
          -70.5943647,
          -33.4021182
        ]
      }
    },
    {
      "type": "Feature",
      "id": "node/2519844586",
      "properties": {
        "@id": "node/2519844586",
        "amenity": "bicycle_rental",
        "capacity": "15",
        "name": "El Ciruelillo",
        "operator": "Bikesantiago"
      },
      "geometry": {
        "type": "Point",
        "coordinates": [
          -70.5906277,
          -33.4030682
        ]
      }
    },
    {
      "type": "Feature",
      "id": "node/2519844587",
      "properties": {
        "@id": "node/2519844587",
        "amenity": "bicycle_rental",
        "capacity": "19",
        "name": "Bicentenario",
        "operator": "Bikesantiago"
      },
      "geometry": {
        "type": "Point",
        "coordinates": [
          -70.6013612,
          -33.4003107
        ]
      }
    },
    {
      "type": "Feature",
      "id": "node/2521071969",
      "properties": {
        "@id": "node/2521071969",
        "amenity": "bicycle_rental",
        "capacity": "13",
        "name": "Plaza Lo Castillo",
        "operator": "Bikesantiago"
      },
      "geometry": {
        "type": "Point",
        "coordinates": [
          -70.5928809,
          -33.4007045
        ]
      }
    },
    {
      "type": "Feature",
      "id": "node/2521071973",
      "properties": {
        "@id": "node/2521071973",
        "amenity": "bicycle_rental",
        "capacity": "15",
        "name": "Vespucio / Las Hualtatas",
        "operator": "Bikesantiago"
      },
      "geometry": {
        "type": "Point",
        "coordinates": [
          -70.5867274,
          -33.402535
        ]
      }
    },
    {
      "type": "Feature",
      "id": "node/2521071979",
      "properties": {
        "@id": "node/2521071979",
        "amenity": "bicycle_rental",
        "capacity": "13",
        "name": "Parque Arauco",
        "operator": "Bikesantiago"
      },
      "geometry": {
        "type": "Point",
        "coordinates": [
          -70.5792001,
          -33.4007672
        ]
      }
    },
    {
      "type": "Feature",
      "id": "node/2521071982",
      "properties": {
        "@id": "node/2521071982",
        "amenity": "bicycle_rental",
        "capacity": "15",
        "name": "Las Hualtatas / Luis Carrera;Psteleria Bittersweet",
        "operator": "Bikesantiago",
        "shop": "bakery"
      },
      "geometry": {
        "type": "Point",
        "coordinates": [
          -70.5772445,
          -33.3967788
        ]
      }
    },
    {
      "type": "Feature",
      "id": "node/2521071986",
      "properties": {
        "@id": "node/2521071986",
        "amenity": "bicycle_rental",
        "capacity": "15",
        "name": "Plaza San Pio",
        "operator": "Bikesantiago"
      },
      "geometry": {
        "type": "Point",
        "coordinates": [
          -70.5824139,
          -33.3970716
        ]
      }
    },
    {
      "type": "Feature",
      "id": "node/2521071989",
      "properties": {
        "@id": "node/2521071989",
        "amenity": "bicycle_rental",
        "capacity": "15",
        "name": "Vespucio / Vitacura",
        "operator": "Bikesantiago"
      },
      "geometry": {
        "type": "Point",
        "coordinates": [
          -70.5879772,
          -33.3986163
        ]
      }
    },
    {
      "type": "Feature",
      "id": "node/2521071992",
      "properties": {
        "@id": "node/2521071992",
        "amenity": "bicycle_rental",
        "capacity": "13",
        "name": "Plaza Turquia",
        "operator": "Bikesantiago"
      },
      "geometry": {
        "type": "Point",
        "coordinates": [
          -70.5952316,
          -33.3962536
        ]
      }
    },
    {
      "type": "Feature",
      "id": "node/2521071995",
      "properties": {
        "@id": "node/2521071995",
        "amenity": "bicycle_rental",
        "capacity": "15",
        "name": "Mestizo",
        "operator": "Bikesantiago"
      },
      "geometry": {
        "type": "Point",
        "coordinates": [
          -70.5995553,
          -33.3941294
        ]
      }
    },
    {
      "type": "Feature",
      "id": "node/2521071998",
      "properties": {
        "@id": "node/2521071998",
        "amenity": "bicycle_rental",
        "capacity": "15",
        "name": "Vespucio / Francisco de Aguirre",
        "operator": "Bikesantiago"
      },
      "geometry": {
        "type": "Point",
        "coordinates": [
          -70.592683,
          -33.392597
        ]
      }
    },
    {
      "type": "Feature",
      "id": "node/2521072002",
      "properties": {
        "@id": "node/2521072002",
        "amenity": "bicycle_rental",
        "capacity": "15",
        "name": "Vitacura / Luis Carrera",
        "operator": "Bikesantiago"
      },
      "geometry": {
        "type": "Point",
        "coordinates": [
          -70.5783062,
          -33.3943802
        ]
      }
    },
    {
      "type": "Feature",
      "id": "node/2521072004",
      "properties": {
        "@id": "node/2521072004",
        "amenity": "bicycle_rental",
        "capacity": "15",
        "name": "Luis Pasteur / Luis Carrera",
        "operator": "Bikesantiago"
      },
      "geometry": {
        "type": "Point",
        "coordinates": [
          -70.5810301,
          -33.3927755
        ]
      }
    },
    {
      "type": "Feature",
      "id": "node/2521072006",
      "properties": {
        "@id": "node/2521072006",
        "amenity": "bicycle_rental",
        "capacity": "15",
        "name": "Clinica Alemana",
        "operator": "Bikesantiago"
      },
      "geometry": {
        "type": "Point",
        "coordinates": [
          -70.5725129,
          -33.3920017
        ]
      }
    },
    {
      "type": "Feature",
      "id": "node/2521072008",
      "properties": {
        "@id": "node/2521072008",
        "amenity": "bicycle_rental",
        "capacity": "13",
        "name": "Manquehue / Luis Pasteur",
        "operator": "Bikesantiago"
      },
      "geometry": {
        "type": "Point",
        "coordinates": [
          -70.5760042,
          -33.3872211
        ]
      }
    },
    {
      "type": "Feature",
      "id": "node/2521072010",
      "properties": {
        "@id": "node/2521072010",
        "amenity": "bicycle_rental",
        "operator": "Bike Santiago"
      },
      "geometry": {
        "type": "Point",
        "coordinates": [
          -70.5490903,
          -33.3830314
        ]
      }
    },
    {
      "type": "Feature",
      "id": "node/2521072013",
      "properties": {
        "@id": "node/2521072013",
        "amenity": "bicycle_rental",
        "capacity": "15",
        "name": "Alejandro Serani",
        "operator": "Bikesantiago"
      },
      "geometry": {
        "type": "Point",
        "coordinates": [
          -70.5467761,
          -33.3770867
        ]
      }
    },
    {
      "type": "Feature",
      "id": "node/3102521244",
      "properties": {
        "@id": "node/3102521244",
        "amenity": "bicycle_rental",
        "capacity": "13",
        "name": "Los Trapenses",
        "operator": "Bikesantiago"
      },
      "geometry": {
        "type": "Point",
        "coordinates": [
          -70.5441544,
          -33.344049
        ]
      }
    },
    {
      "type": "Feature",
      "id": "node/3102521245",
      "properties": {
        "@id": "node/3102521245",
        "amenity": "bicycle_rental",
        "capacity": "9",
        "name": "El Abad",
        "operator": "Bikesantiago"
      },
      "geometry": {
        "type": "Point",
        "coordinates": [
          -70.5424995,
          -33.347853
        ]
      }
    },
    {
      "type": "Feature",
      "id": "node/3102521246",
      "properties": {
        "@id": "node/3102521246",
        "amenity": "bicycle_rental",
        "capacity": "11",
        "name": "José Alcalde Délano",
        "operator": "Bikesantiago"
      },
      "geometry": {
        "type": "Point",
        "coordinates": [
          -70.5385014,
          -33.355552
        ]
      }
    },
    {
      "type": "Feature",
      "id": "node/3102521247",
      "properties": {
        "@id": "node/3102521247",
        "amenity": "bicycle_rental",
        "capacity": "11",
        "name": "El Tranque / Los Castaños",
        "operator": "Bikesantiago"
      },
      "geometry": {
        "type": "Point",
        "coordinates": [
          -70.5349719,
          -33.3597704
        ]
      }
    },
    {
      "type": "Feature",
      "id": "node/3102521248",
      "properties": {
        "@id": "node/3102521248",
        "amenity": "bicycle_rental",
        "capacity": "9",
        "name": "Clinica Alemana",
        "operator": "Bikesantiago"
      },
      "geometry": {
        "type": "Point",
        "coordinates": [
          -70.5267291,
          -33.3546919
        ]
      }
    },
    {
      "type": "Feature",
      "id": "node/3102521249",
      "properties": {
        "@id": "node/3102521249",
        "amenity": "bicycle_rental",
        "capacity": "11",
        "name": "El Rodeo / La Dehesa",
        "operator": "Bikesantiago"
      },
      "geometry": {
        "type": "Point",
        "coordinates": [
          -70.5188352,
          -33.3526643
        ]
      }
    },
    {
      "type": "Feature",
      "id": "node/3102521250",
      "properties": {
        "@id": "node/3102521250",
        "amenity": "bicycle_rental",
        "capacity": "11",
        "name": "La Dehesa / Luis Bascuñan",
        "operator": "Bikesantiago"
      },
      "geometry": {
        "type": "Point",
        "coordinates": [
          -70.5179856,
          -33.3549068
        ]
      }
    },
    {
      "type": "Feature",
      "id": "node/3102521251",
      "properties": {
        "@id": "node/3102521251",
        "amenity": "bicycle_rental",
        "capacity": "13",
        "name": "Portal La Dehesa",
        "operator": "Bikesantiago"
      },
      "geometry": {
        "type": "Point",
        "coordinates": [
          -70.5165,
          -33.3596026
        ]
      }
    },
    {
      "type": "Feature",
      "id": "node/3102521252",
      "properties": {
        "@id": "node/3102521252",
        "amenity": "bicycle_rental",
        "capacity": "9",
        "name": "La Dehesa / Los Robles",
        "operator": "Bikesantiago"
      },
      "geometry": {
        "type": "Point",
        "coordinates": [
          -70.5150872,
          -33.3622504
        ]
      }
    },
    {
      "type": "Feature",
      "id": "node/3102521253",
      "properties": {
        "@id": "node/3102521253",
        "amenity": "bicycle_rental",
        "capacity": "11",
        "name": "Cuatro Vientos / Lo Barnechea",
        "operator": "Bikesantiago"
      },
      "geometry": {
        "type": "Point",
        "coordinates": [
          -70.5068348,
          -33.357665
        ]
      }
    },
    {
      "type": "Feature",
      "id": "node/3102521254",
      "properties": {
        "@id": "node/3102521254",
        "amenity": "bicycle_rental",
        "capacity": "11",
        "name": "Raul Labbe / La Pasarela",
        "operator": "Bikesantiago"
      },
      "geometry": {
        "type": "Point",
        "coordinates": [
          -70.5054102,
          -33.3616295
        ]
      }
    },
    {
      "type": "Feature",
      "id": "node/3102521257",
      "properties": {
        "@id": "node/3102521257",
        "amenity": "bicycle_rental",
        "capacity": "11",
        "name": "Las Condes / San Fco. de Asis",
        "operator": "Bike Santiago"
      },
      "geometry": {
        "type": "Point",
        "coordinates": [
          -70.5175961,
          -33.3725427
        ]
      }
    },
    {
      "type": "Feature",
      "id": "node/3102557495",
      "properties": {
        "@id": "node/3102557495",
        "amenity": "bicycle_rental",
        "capacity": "15",
        "name": "Kennedy / Tabancura",
        "operator": "Bikesantiago"
      },
      "geometry": {
        "type": "Point",
        "coordinates": [
          -70.5348284,
          -33.3839424
        ]
      }
    },
    {
      "type": "Feature",
      "id": "node/3102557496",
      "properties": {
        "@id": "node/3102557496",
        "amenity": "bicycle_rental",
        "capacity": "15",
        "name": "Plaza chica Lo Gallo",
        "operator": "Bikesantiago"
      },
      "geometry": {
        "type": "Point",
        "coordinates": [
          -70.5555375,
          -33.3783672
        ]
      }
    },
    {
      "type": "Feature",
      "id": "node/3102557497",
      "properties": {
        "@id": "node/3102557497",
        "amenity": "bicycle_rental",
        "capacity": "15",
        "name": "Las Tranqueras / Vitacura",
        "operator": "Bikesantiago"
      },
      "geometry": {
        "type": "Point",
        "coordinates": [
          -70.5530854,
          -33.3845833
        ]
      }
    },
    {
      "type": "Feature",
      "id": "node/3102557498",
      "properties": {
        "@id": "node/3102557498",
        "amenity": "bicycle_rental",
        "capacity": "15",
        "name": "Alto Las Condes",
        "operator": "Bikesantiago"
      },
      "geometry": {
        "type": "Point",
        "coordinates": [
          -70.5482258,
          -33.3893708
        ]
      }
    },
    {
      "type": "Feature",
      "id": "node/3102557499",
      "properties": {
        "@id": "node/3102557499",
        "amenity": "bicycle_rental",
        "capacity": "15",
        "name": "Los Castaños",
        "operator": "Bikesantiago"
      },
      "geometry": {
        "type": "Point",
        "coordinates": [
          -70.5631031,
          -33.3862351
        ]
      }
    },
    {
      "type": "Feature",
      "id": "node/3102557500",
      "properties": {
        "@id": "node/3102557500",
        "amenity": "bicycle_rental",
        "capacity": "11",
        "name": "Lo Curro",
        "operator": "Bikesantiago"
      },
      "geometry": {
        "type": "Point",
        "coordinates": [
          -70.5696054,
          -33.3766351
        ]
      }
    },
    {
      "type": "Feature",
      "id": "node/3102557501",
      "properties": {
        "@id": "node/3102557501",
        "amenity": "bicycle_rental",
        "capacity": "11",
        "name": "Plaza Colombia",
        "operator": "Bikesantiago"
      },
      "geometry": {
        "type": "Point",
        "coordinates": [
          -70.5790135,
          -33.3850527
        ]
      }
    },
    {
      "type": "Feature",
      "id": "node/3102557502",
      "properties": {
        "@id": "node/3102557502",
        "amenity": "bicycle_rental",
        "capacity": "11",
        "name": "Luis Carrera / Candelaria Goyenechea",
        "operator": "Bikesantiago"
      },
      "geometry": {
        "type": "Point",
        "coordinates": [
          -70.5866102,
          -33.3904433
        ]
      }
    },
    {
      "type": "Feature",
      "id": "node/3102632337",
      "properties": {
        "@id": "node/3102632337",
        "amenity": "bicycle_rental",
        "capacity": "31",
        "name": "Ricardo Lyon / Lota",
        "operator": "Bikesantiago"
      },
      "geometry": {
        "type": "Point",
        "coordinates": [
          -70.6089204,
          -33.4239157
        ]
      }
    },
    {
      "type": "Feature",
      "id": "node/3102632338",
      "properties": {
        "@id": "node/3102632338",
        "amenity": "bicycle_rental",
        "capacity": "15",
        "name": "Metro Salvador",
        "operator": "Bikesantiago"
      },
      "geometry": {
        "type": "Point",
        "coordinates": [
          -70.6261506,
          -33.4324477
        ]
      }
    },
    {
      "type": "Feature",
      "id": "node/3240227210",
      "properties": {
        "@id": "node/3240227210",
        "amenity": "bicycle_rental",
        "capacity": "12",
        "name": "Metro Colón",
        "operator": "Bikesantiago"
      },
      "geometry": {
        "type": "Point",
        "coordinates": [
          -70.5909913,
          -33.4264954
        ]
      }
    },
    {
      "type": "Feature",
      "id": "node/3240233906",
      "properties": {
        "@id": "node/3240233906",
        "amenity": "bicycle_rental",
        "capacity": "11",
        "name": "Metro Santa Isabel",
        "operator": "Bikesantiago"
      },
      "geometry": {
        "type": "Point",
        "coordinates": [
          -70.6310228,
          -33.4471582
        ]
      }
    },
    {
      "type": "Feature",
      "id": "node/3240243200",
      "properties": {
        "@id": "node/3240243200",
        "amenity": "bicycle_rental",
        "capacity": "31",
        "name": "Costanera Center 1",
        "network": "BikeSantiago",
        "payment:credit_cards": "no"
      },
      "geometry": {
        "type": "Point",
        "coordinates": [
          -70.6053481,
          -33.4172625
        ]
      }
    },
    {
      "type": "Feature",
      "id": "node/3381073970",
      "properties": {
        "@id": "node/3381073970",
        "amenity": "bicycle_rental",
        "capacity": "27",
        "name": "Teatro Municipal",
        "operator": "Bikesantiago"
      },
      "geometry": {
        "type": "Point",
        "coordinates": [
          -70.6470148,
          -33.4415519
        ]
      }
    },
    {
      "type": "Feature",
      "id": "node/3420117921",
      "properties": {
        "@id": "node/3420117921",
        "amenity": "bicycle_rental",
        "capacity": "16",
        "name": "El Aguilucho / Arzobispo Fuenzalida",
        "operator": "Bikesantiago"
      },
      "geometry": {
        "type": "Point",
        "coordinates": [
          -70.5985264,
          -33.4427841
        ]
      }
    },
    {
      "type": "Feature",
      "id": "node/3420117922",
      "properties": {
        "@id": "node/3420117922",
        "amenity": "bicycle_rental",
        "capacity": "26",
        "name": "Plaza Pedro de Valdivia",
        "operator": "Bikesantiago"
      },
      "geometry": {
        "type": "Point",
        "coordinates": [
          -70.6079032,
          -33.4392885
        ]
      }
    },
    {
      "type": "Feature",
      "id": "node/3420117923",
      "properties": {
        "@id": "node/3420117923",
        "amenity": "bicycle_rental",
        "capacity": "12",
        "name": "Santa Isabel / Ana Luisa Prats",
        "operator": "Bikesantiago"
      },
      "geometry": {
        "type": "Point",
        "coordinates": [
          -70.6177909,
          -33.4453342
        ]
      }
    },
    {
      "type": "Feature",
      "id": "node/3420117924",
      "properties": {
        "@id": "node/3420117924",
        "amenity": "bicycle_rental",
        "capacity": "31",
        "name": "Costanera Center 2",
        "network": "BikeSantiago",
        "payment:credit_cards": "no"
      },
      "geometry": {
        "type": "Point",
        "coordinates": [
          -70.6063541,
          -33.4167883
        ]
      }
    },
    {
      "type": "Feature",
      "id": "node/3420117925",
      "properties": {
        "@id": "node/3420117925",
        "amenity": "bicycle_rental",
        "capacity": "24",
        "name": "Metro Pedro de Valdivia",
        "operator": "Bikesantiago"
      },
      "geometry": {
        "type": "Point",
        "coordinates": [
          -70.6137522,
          -33.4255066
        ]
      }
    },
    {
      "type": "Feature",
      "id": "node/3459289432",
      "properties": {
        "@id": "node/3459289432",
        "amenity": "bicycle_rental",
        "capacity": "13",
        "name": "Municipalidad Lo Barnechea",
        "operator": "Bikesantiago"
      },
      "geometry": {
        "type": "Point",
        "coordinates": [
          -70.4945256,
          -33.3641018
        ]
      }
    },
    {
      "type": "Feature",
      "id": "node/3459289433",
      "properties": {
        "@id": "node/3459289433",
        "amenity": "bicycle_rental",
        "capacity": "11",
        "name": "Las Condes / San Jose de la Sierra",
        "operator": "Bikesantiago"
      },
      "geometry": {
        "type": "Point",
        "coordinates": [
          -70.5042391,
          -33.3693303
        ]
      }
    },
    {
      "type": "Feature",
      "id": "node/3459385849",
      "properties": {
        "@id": "node/3459385849",
        "amenity": "bicycle_rental",
        "capacity": "31",
        "name": "Nueva Los Leones",
        "network": "BikeSantiago",
        "payment:credit_cards": "no"
      },
      "geometry": {
        "type": "Point",
        "coordinates": [
          -70.6062024,
          -33.419707
        ]
      }
    },
    {
      "type": "Feature",
      "id": "node/3459385850",
      "properties": {
        "@id": "node/3459385850",
        "amenity": "bicycle_rental",
        "capacity": "31",
        "name": "Andrés Bello / Santa Magdalena",
        "operator": "Bikesantiago"
      },
      "geometry": {
        "type": "Point",
        "coordinates": [
          -70.6103361,
          -33.4195664
        ]
      }
    },
    {
      "type": "Feature",
      "id": "node/3459385851",
      "properties": {
        "@id": "node/3459385851",
        "amenity": "bicycle_rental",
        "capacity": "31",
        "name": "Metro Pedro de Valdivia",
        "operator": "Bikesantiago"
      },
      "geometry": {
        "type": "Point",
        "coordinates": [
          -70.61375,
          -33.4254101
        ]
      }
    },
    {
      "type": "Feature",
      "id": "node/3459385852",
      "properties": {
        "@id": "node/3459385852",
        "amenity": "bicycle_rental",
        "capacity": "31",
        "name": "Metro Manuel Montt",
        "operator": "Bikesantiago"
      },
      "geometry": {
        "type": "Point",
        "coordinates": [
          -70.6192782,
          -33.4282153
        ]
      }
    },
    {
      "type": "Feature",
      "id": "node/3459452960",
      "properties": {
        "@id": "node/3459452960",
        "amenity": "bicycle_rental",
        "capacity": "28",
        "name": "Patio Bellavista",
        "operator": "Bikesantiago"
      },
      "geometry": {
        "type": "Point",
        "coordinates": [
          -70.6344078,
          -33.434247
        ]
      }
    },
    {
      "type": "Feature",
      "id": "node/3459452961",
      "properties": {
        "@id": "node/3459452961",
        "amenity": "bicycle_rental",
        "capacity": "27",
        "name": "Santa Isabel / Carmen",
        "operator": "Bikesantiago"
      },
      "geometry": {
        "type": "Point",
        "coordinates": [
          -70.6415018,
          -33.4496794
        ]
      }
    },
    {
      "type": "Feature",
      "id": "node/3459452962",
      "properties": {
        "@id": "node/3459452962",
        "amenity": "bicycle_rental",
        "capacity": "31",
        "name": "San Isidro / Santa Isabel",
        "operator": "Bikesantiago"
      },
      "geometry": {
        "type": "Point",
        "coordinates": [
          -70.6429247,
          -33.4501781
        ]
      }
    },
    {
      "type": "Feature",
      "id": "node/3459497767",
      "properties": {
        "@id": "node/3459497767",
        "amenity": "bicycle_rental",
        "capacity": "30",
        "name": "Metro Santa Lucia",
        "operator": "Bikesantiago"
      },
      "geometry": {
        "type": "Point",
        "coordinates": [
          -70.6449457,
          -33.4419282
        ]
      }
    },
    {
      "type": "Feature",
      "id": "node/3459497768",
      "properties": {
        "@id": "node/3459497768",
        "amenity": "bicycle_rental",
        "capacity": "23",
        "name": "Barrio Lastarria",
        "operator": "Bikesantiago"
      },
      "geometry": {
        "type": "Point",
        "coordinates": [
          -70.6408897,
          -33.4381479
        ]
      }
    },
    {
      "type": "Feature",
      "id": "node/3459497769",
      "properties": {
        "@id": "node/3459497769",
        "amenity": "bicycle_rental",
        "capacity": "17",
        "name": "Metro Bellas Artes",
        "operator": "Bikesantiago"
      },
      "geometry": {
        "type": "Point",
        "coordinates": [
          -70.6445358,
          -33.4364181
        ]
      }
    },
    {
      "type": "Feature",
      "id": "node/3459497770",
      "properties": {
        "@id": "node/3459497770",
        "amenity": "bicycle_rental",
        "capacity": "30",
        "name": "Monjitas / Mac Iver",
        "operator": "Bikesantiago"
      },
      "geometry": {
        "type": "Point",
        "coordinates": [
          -70.6472367,
          -33.4367595
        ]
      }
    },
    {
      "type": "Feature",
      "id": "node/3459497771",
      "properties": {
        "@id": "node/3459497771",
        "amenity": "bicycle_rental",
        "capacity": "31",
        "name": "Plaza de Armas",
        "operator": "Bikesantiago"
      },
      "geometry": {
        "type": "Point",
        "coordinates": [
          -70.6496337,
          -33.437212
        ]
      }
    },
    {
      "type": "Feature",
      "id": "node/3459497772",
      "properties": {
        "@id": "node/3459497772",
        "amenity": "bicycle_rental",
        "capacity": "22",
        "name": "Santo Domingo / Morandé",
        "operator": "Bikesantiago"
      },
      "geometry": {
        "type": "Point",
        "coordinates": [
          -70.6542491,
          -33.4365435
        ]
      }
    },
    {
      "type": "Feature",
      "id": "node/3459497773",
      "properties": {
        "@id": "node/3459497773",
        "amenity": "bicycle_rental",
        "capacity": "23",
        "name": "Teatinos / General Mackenna",
        "operator": "Bikesantiago"
      },
      "geometry": {
        "type": "Point",
        "coordinates": [
          -70.6558821,
          -33.4333193
        ]
      }
    },
    {
      "type": "Feature",
      "id": "node/3459497774",
      "properties": {
        "@id": "node/3459497774",
        "amenity": "bicycle_rental",
        "capacity": "17",
        "name": "San Martín / General Mackenna",
        "operator": "Bikesantiago"
      },
      "geometry": {
        "type": "Point",
        "coordinates": [
          -70.6586982,
          -33.4333758
        ]
      }
    },
    {
      "type": "Feature",
      "id": "node/3459497775",
      "properties": {
        "@id": "node/3459497775",
        "amenity": "bicycle_rental",
        "capacity": "27",
        "name": "Metro Santa Ana",
        "operator": "Bikesantiago"
      },
      "geometry": {
        "type": "Point",
        "coordinates": [
          -70.6588153,
          -33.4382353
        ]
      }
    },
    {
      "type": "Feature",
      "id": "node/3459497776",
      "properties": {
        "@id": "node/3459497776",
        "amenity": "bicycle_rental",
        "capacity": "23",
        "name": "Teatinos / Huérfanos",
        "operator": "Bikesantiago"
      },
      "geometry": {
        "type": "Point",
        "coordinates": [
          -70.6550687,
          -33.4397831
        ]
      }
    },
    {
      "type": "Feature",
      "id": "node/3459510456",
      "properties": {
        "@id": "node/3459510456",
        "amenity": "bicycle_rental",
        "capacity": "31",
        "name": "Bandera / Agustínas",
        "operator": "Bikesantiago"
      },
      "geometry": {
        "type": "Point",
        "coordinates": [
          -70.6521895,
          -33.4404569
        ]
      }
    },
    {
      "type": "Feature",
      "id": "node/3459510457",
      "properties": {
        "@id": "node/3459510457",
        "amenity": "bicycle_rental",
        "capacity": "31",
        "name": "Palacio de La Moneda",
        "operator": "Bikesantiago"
      },
      "geometry": {
        "type": "Point",
        "coordinates": [
          -70.6547108,
          -33.4421826
        ]
      }
    },
    {
      "type": "Feature",
      "id": "node/3459510458",
      "properties": {
        "@id": "node/3459510458",
        "amenity": "bicycle_rental",
        "capacity": "23",
        "name": "Agustinas / Manuel Rodríguez Norte",
        "operator": "Bikesantiago"
      },
      "geometry": {
        "type": "Point",
        "coordinates": [
          -70.6596424,
          -33.4416947
        ]
      }
    },
    {
      "type": "Feature",
      "id": "node/3459510459",
      "properties": {
        "@id": "node/3459510459",
        "amenity": "bicycle_rental",
        "capacity": "27",
        "name": "Metro Los Héroes",
        "operator": "Bikesantiago"
      },
      "geometry": {
        "type": "Point",
        "coordinates": [
          -70.6604831,
          -33.4461573
        ]
      }
    },
    {
      "type": "Feature",
      "id": "node/3459510460",
      "properties": {
        "@id": "node/3459510460",
        "amenity": "bicycle_rental",
        "capacity": "31",
        "name": "Metro República",
        "operator": "Bikesantiago"
      },
      "geometry": {
        "type": "Point",
        "coordinates": [
          -70.6681767,
          -33.448669
        ]
      }
    },
    {
      "type": "Feature",
      "id": "node/3459556217",
      "properties": {
        "@id": "node/3459556217",
        "amenity": "bicycle_rental",
        "capacity": "19",
        "name": "48 Plaza Brasilia",
        "operator": "Bici Las Condes"
      },
      "geometry": {
        "type": "Point",
        "coordinates": [
          -70.5675774,
          -33.3972718
        ]
      }
    },
    {
      "type": "Feature",
      "id": "node/3459556218",
      "properties": {
        "@id": "node/3459556218",
        "amenity": "bicycle_rental",
        "capacity": "19",
        "name": "26 Cerro Colorado / Manquehue",
        "operator": "Bici Las Condes"
      },
      "geometry": {
        "type": "Point",
        "coordinates": [
          -70.5710098,
          -33.4007068
        ]
      }
    },
    {
      "type": "Feature",
      "id": "node/3459556219",
      "properties": {
        "@id": "node/3459556219",
        "amenity": "bicycle_rental",
        "capacity": "21",
        "name": "49 Noruega - Los Militares",
        "operator": "Bici Las Condes"
      },
      "geometry": {
        "type": "Point",
        "coordinates": [
          -70.5622083,
          -33.4026688
        ]
      }
    },
    {
      "type": "Feature",
      "id": "node/3459556220",
      "properties": {
        "@id": "node/3459556220",
        "amenity": "bicycle_rental",
        "capacity": "20",
        "name": "36 Manquehue - Alonso de Córdova"
      },
      "geometry": {
        "type": "Point",
        "coordinates": [
          -70.5673632,
          -33.4083718
        ]
      }
    },
    {
      "type": "Feature",
      "id": "node/3459556221",
      "properties": {
        "@id": "node/3459556221",
        "amenity": "bicycle_rental",
        "capacity": "20",
        "name": "33 Manquehue - Apoquindo",
        "operator": "Bici Las Condes"
      },
      "geometry": {
        "type": "Point",
        "coordinates": [
          -70.5672215,
          -33.4089376
        ]
      }
    },
    {
      "type": "Feature",
      "id": "node/3459702027",
      "properties": {
        "@id": "node/3459702027",
        "amenity": "bicycle_rental",
        "capacity": "19",
        "name": "25 Cerro Colorado - Rosario Norte",
        "operator": "Bici Las Condes"
      },
      "geometry": {
        "type": "Point",
        "coordinates": [
          -70.5753438,
          -33.40235
        ]
      }
    },
    {
      "type": "Feature",
      "id": "node/3459702028",
      "properties": {
        "@id": "node/3459702028",
        "amenity": "bicycle_rental",
        "capacity": "21",
        "name": "29 Pdte. Riesco / Rosario Norte",
        "operator": "Bici Las Condes"
      },
      "geometry": {
        "type": "Point",
        "coordinates": [
          -70.5735199,
          -33.4037473
        ]
      }
    },
    {
      "type": "Feature",
      "id": "node/3459702029",
      "properties": {
        "@id": "node/3459702029",
        "amenity": "bicycle_rental",
        "capacity": "21",
        "name": "28 Pdte. Riesco / Alsonso de Cordova",
        "operator": "Bici Las Condes"
      },
      "geometry": {
        "type": "Point",
        "coordinates": [
          -70.5792189,
          -33.4055955
        ]
      }
    },
    {
      "type": "Feature",
      "id": "node/3459702030",
      "properties": {
        "@id": "node/3459702030",
        "amenity": "bicycle_rental",
        "capacity": "20",
        "name": "31 Alonso de Cordova Interior",
        "operator": "Bici Las Condes"
      },
      "geometry": {
        "type": "Point",
        "coordinates": [
          -70.5757619,
          -33.4068609
        ]
      }
    },
    {
      "type": "Feature",
      "id": "node/3459702031",
      "properties": {
        "@id": "node/3459702031",
        "amenity": "bicycle_rental",
        "capacity": "21",
        "name": "35 Apoquindo / Luis Zegers",
        "operator": "Bici Las Condes"
      },
      "geometry": {
        "type": "Point",
        "coordinates": [
          -70.5732137,
          -33.4109995
        ]
      }
    },
    {
      "type": "Feature",
      "id": "node/3459702032",
      "properties": {
        "@id": "node/3459702032",
        "amenity": "bicycle_rental",
        "capacity": "21",
        "name": "50 Rotonda La Capitania",
        "operator": "Bici Las Condes"
      },
      "geometry": {
        "type": "Point",
        "coordinates": [
          -70.5700587,
          -33.413671
        ]
      }
    },
    {
      "type": "Feature",
      "id": "node/3459743162",
      "properties": {
        "@id": "node/3459743162",
        "amenity": "bicycle_rental",
        "capacity": "21",
        "name": "27 Pdte. Riesco / Los Estandartes",
        "operator": "Bici Las Condes"
      },
      "geometry": {
        "type": "Point",
        "coordinates": [
          -70.5836605,
          -33.4085733
        ]
      }
    },
    {
      "type": "Feature",
      "id": "node/3459743163",
      "properties": {
        "@id": "node/3459743163",
        "amenity": "bicycle_rental",
        "capacity": "21",
        "name": "23 A. Vespucio / Pdte. Kennedy",
        "operator": "Bici Las Condes"
      },
      "geometry": {
        "type": "Point",
        "coordinates": [
          -70.5860007,
          -33.405603
        ]
      }
    },
    {
      "type": "Feature",
      "id": "node/3459743164",
      "properties": {
        "@id": "node/3459743164",
        "amenity": "bicycle_rental",
        "capacity": "20",
        "name": "32 Apoquido - La Castellana Norte",
        "operator": "Bici Las Condes"
      },
      "geometry": {
        "type": "Point",
        "coordinates": [
          -70.5769359,
          -33.4117222
        ]
      }
    },
    {
      "type": "Feature",
      "id": "node/3459743165",
      "properties": {
        "@id": "node/3459743165",
        "amenity": "bicycle_rental",
        "capacity": "20",
        "name": "34 Luis Rodriguez Velasco - Coronel Pereira",
        "operator": "Bici Las Condes"
      },
      "geometry": {
        "type": "Point",
        "coordinates": [
          -70.579781,
          -33.4133149
        ]
      }
    },
    {
      "type": "Feature",
      "id": "node/3459743166",
      "properties": {
        "@id": "node/3459743166",
        "amenity": "bicycle_rental",
        "capacity": "21",
        "name": "38 Del Inca - Antonia Salas",
        "operator": "Bici Las Condes"
      },
      "geometry": {
        "type": "Point",
        "coordinates": [
          -70.5769861,
          -33.4161313
        ]
      }
    },
    {
      "type": "Feature",
      "id": "node/3459743167",
      "properties": {
        "@id": "node/3459743167",
        "amenity": "bicycle_rental",
        "capacity": "21",
        "name": "37 Del Inca - Cruz del Sur",
        "operator": "Bici Las Condes"
      },
      "geometry": {
        "type": "Point",
        "coordinates": [
          -70.5813557,
          -33.4180203
        ]
      }
    },
    {
      "type": "Feature",
      "id": "node/3459781693",
      "properties": {
        "@id": "node/3459781693",
        "amenity": "bicycle_rental",
        "capacity": "21",
        "name": "39 Martín de Zamora",
        "operator": "Bici Las Condes"
      },
      "geometry": {
        "type": "Point",
        "coordinates": [
          -70.5775397,
          -33.4192055
        ]
      }
    },
    {
      "type": "Feature",
      "id": "node/3459781694",
      "properties": {
        "@id": "node/3459781694",
        "amenity": "bicycle_rental",
        "capacity": "18",
        "name": "41 Alonso de Camargo - Sebastian Elcano",
        "operator": "Bici Las Condes"
      },
      "geometry": {
        "type": "Point",
        "coordinates": [
          -70.5706736,
          -33.4210497
        ]
      }
    },
    {
      "type": "Feature",
      "id": "node/3459781695",
      "properties": {
        "@id": "node/3459781695",
        "amenity": "bicycle_rental",
        "capacity": "21",
        "name": "42 Martín Alonso Pinzón - Diego de Deza",
        "operator": "Bici Las Condes"
      },
      "geometry": {
        "type": "Point",
        "coordinates": [
          -70.567891,
          -33.4196902
        ]
      }
    },
    {
      "type": "Feature",
      "id": "node/3459781696",
      "properties": {
        "@id": "node/3459781696",
        "amenity": "bicycle_rental",
        "capacity": "21",
        "name": "43 Manquehue - Alonso de Camargo",
        "operator": "Bici Las Condes"
      },
      "geometry": {
        "type": "Point",
        "coordinates": [
          -70.5645345,
          -33.420705
        ]
      }
    },
    {
      "type": "Feature",
      "id": "node/3459781697",
      "properties": {
        "@id": "node/3459781697",
        "amenity": "bicycle_rental",
        "capacity": "21",
        "name": "44 Manquehue - Isabel la Católica",
        "operator": "Bici Las Condes"
      },
      "geometry": {
        "type": "Point",
        "coordinates": [
          -70.5641535,
          -33.4247101
        ]
      }
    },
    {
      "type": "Feature",
      "id": "node/3459781698",
      "properties": {
        "@id": "node/3459781698",
        "amenity": "bicycle_rental",
        "capacity": "21",
        "name": "47 Manquehue - Carlos Alvarado",
        "operator": "Bici Las Condes"
      },
      "geometry": {
        "type": "Point",
        "coordinates": [
          -70.5646508,
          -33.428509
        ]
      }
    },
    {
      "type": "Feature",
      "id": "node/3459781699",
      "properties": {
        "@id": "node/3459781699",
        "amenity": "bicycle_rental",
        "capacity": "18",
        "name": "40 Sebastián Elcano - Victor Rae",
        "operator": "Bici Las Condes"
      },
      "geometry": {
        "type": "Point",
        "coordinates": [
          -70.5700306,
          -33.430294
        ]
      }
    },
    {
      "type": "Feature",
      "id": "node/3459781700",
      "properties": {
        "@id": "node/3459781700",
        "amenity": "bicycle_rental",
        "capacity": "21",
        "name": "46 Rotonda LAtadia - Sebastián Elcano",
        "operator": "Bici Las Condes"
      },
      "geometry": {
        "type": "Point",
        "coordinates": [
          -70.5704229,
          -33.4275969
        ]
      }
    },
    {
      "type": "Feature",
      "id": "node/3459781701",
      "properties": {
        "@id": "node/3459781701",
        "amenity": "bicycle_rental",
        "capacity": "21",
        "name": "45 Latadia - A. Vespucio",
        "operator": "Bici Las Condes"
      },
      "geometry": {
        "type": "Point",
        "coordinates": [
          -70.5748267,
          -33.4281972
        ]
      }
    },
    {
      "type": "Feature",
      "id": "node/3459787040",
      "properties": {
        "@id": "node/3459787040",
        "amenity": "bicycle_rental",
        "capacity": "21",
        "name": "30 Los Militares / A. Vespucio",
        "operator": "Bici Las Condes"
      },
      "geometry": {
        "type": "Point",
        "coordinates": [
          -70.5846298,
          -33.4135431
        ]
      }
    },
    {
      "type": "Feature",
      "id": "node/3459787041",
      "properties": {
        "@id": "node/3459787041",
        "amenity": "bicycle_rental",
        "capacity": "19",
        "name": "8 Apoquindo / Hans C. Andersen",
        "operator": "Bici Las Condes"
      },
      "geometry": {
        "type": "Point",
        "coordinates": [
          -70.5859815,
          -33.4148653
        ]
      }
    },
    {
      "type": "Feature",
      "id": "node/3459787042",
      "properties": {
        "@id": "node/3459787042",
        "amenity": "bicycle_rental",
        "capacity": "21",
        "name": "10 Burgos / Apoquindo",
        "operator": "Bici Las Condes"
      },
      "geometry": {
        "type": "Point",
        "coordinates": [
          -70.5879288,
          -33.4156936
        ]
      }
    },
    {
      "type": "Feature",
      "id": "node/3459787043",
      "properties": {
        "@id": "node/3459787043",
        "amenity": "bicycle_rental",
        "capacity": "20",
        "name": "22 Alcantara / Apoquindo",
        "operator": "Bici Las Condes"
      },
      "geometry": {
        "type": "Point",
        "coordinates": [
          -70.5895435,
          -33.4160384
        ]
      }
    },
    {
      "type": "Feature",
      "id": "node/3459787044",
      "properties": {
        "@id": "node/3459787044",
        "amenity": "bicycle_rental",
        "capacity": "14",
        "name": "7 Alsacia / Apoquindo",
        "operator": "Bici Las Condes"
      },
      "geometry": {
        "type": "Point",
        "coordinates": [
          -70.5902796,
          -33.4151237
        ]
      }
    },
    {
      "type": "Feature",
      "id": "node/3459787045",
      "properties": {
        "@id": "node/3459787045",
        "amenity": "bicycle_rental",
        "capacity": "20",
        "name": "3 El Golf - Isidora Goyenechea",
        "operator": "Bici Las Condes"
      },
      "geometry": {
        "type": "Point",
        "coordinates": [
          -70.5925885,
          -33.4138983
        ]
      }
    },
    {
      "type": "Feature",
      "id": "node/3459787046",
      "properties": {
        "@id": "node/3459787046",
        "amenity": "bicycle_rental",
        "capacity": "14",
        "name": "16 Hendaya - Apoquindo",
        "operator": "Bici Las Condes"
      },
      "geometry": {
        "type": "Point",
        "coordinates": [
          -70.5925535,
          -33.4165326
        ]
      }
    },
    {
      "type": "Feature",
      "id": "node/3459787047",
      "properties": {
        "@id": "node/3459787047",
        "amenity": "bicycle_rental",
        "capacity": "21",
        "name": "6 Reyes Lavalle (Centro Cívico)",
        "operator": "Bici Las Condes"
      },
      "geometry": {
        "type": "Point",
        "coordinates": [
          -70.5957614,
          -33.4157938
        ]
      }
    },
    {
      "type": "Feature",
      "id": "node/3459790032",
      "properties": {
        "@id": "node/3459790032",
        "amenity": "bicycle_rental",
        "capacity": "19",
        "name": "5 Roger de Flor / Encomenderos",
        "operator": "Bici Las Condes"
      },
      "geometry": {
        "type": "Point",
        "coordinates": [
          -70.6017442,
          -33.4171641
        ]
      }
    },
    {
      "type": "Feature",
      "id": "node/3459790033",
      "properties": {
        "@id": "node/3459790033",
        "amenity": "bicycle_rental",
        "capacity": "18",
        "name": "4 Zurich / Vitacura",
        "operator": "Bici Las Condes"
      },
      "geometry": {
        "type": "Point",
        "coordinates": [
          -70.6036426,
          -33.4154763
        ]
      }
    },
    {
      "type": "Feature",
      "id": "node/3459790034",
      "properties": {
        "@id": "node/3459790034",
        "amenity": "bicycle_rental",
        "capacity": "21",
        "name": "2 Isidora Goyenechea - El Bosque Norte",
        "operator": "Bici Las Condes"
      },
      "geometry": {
        "type": "Point",
        "coordinates": [
          -70.6022042,
          -33.4141431
        ]
      }
    },
    {
      "type": "Feature",
      "id": "node/3459790035",
      "properties": {
        "@id": "node/3459790035",
        "amenity": "bicycle_rental",
        "capacity": "20",
        "name": "1 Vitacura / San Patricio",
        "operator": "Bici Las Condes"
      },
      "geometry": {
        "type": "Point",
        "coordinates": [
          -70.6023901,
          -33.4115371
        ]
      }
    },
    {
      "type": "Feature",
      "id": "node/3459860421",
      "properties": {
        "@id": "node/3459860421",
        "amenity": "bicycle_rental",
        "capacity": "20",
        "name": "11 Gertrudis Echeñique / Callao",
        "operator": "Bici Las Condes"
      },
      "geometry": {
        "type": "Point",
        "coordinates": [
          -70.5909985,
          -33.418065
        ]
      }
    },
    {
      "type": "Feature",
      "id": "node/3459860422",
      "properties": {
        "@id": "node/3459860422",
        "amenity": "bicycle_rental",
        "capacity": "19",
        "name": "9 San Crescente / Renato Sánchez",
        "operator": "Bici Las Condes"
      },
      "geometry": {
        "type": "Point",
        "coordinates": [
          -70.5944,
          -33.4196079
        ]
      }
    },
    {
      "type": "Feature",
      "id": "node/3459860423",
      "properties": {
        "@id": "node/3459860423",
        "amenity": "bicycle_rental",
        "capacity": "21",
        "name": "12 Pdte. Errázuriz / Enrique Foster Sur",
        "operator": "Bici Las Condes"
      },
      "geometry": {
        "type": "Point",
        "coordinates": [
          -70.5926709,
          -33.4212344
        ]
      }
    },
    {
      "type": "Feature",
      "id": "node/3459860424",
      "properties": {
        "@id": "node/3459860424",
        "amenity": "bicycle_rental",
        "capacity": "20",
        "name": "13 Pdte. Errázuriz / Alcantara",
        "operator": "Bici Las Condes"
      },
      "geometry": {
        "type": "Point",
        "coordinates": [
          -70.5881293,
          -33.4203527
        ]
      }
    },
    {
      "type": "Feature",
      "id": "node/3459860425",
      "properties": {
        "@id": "node/3459860425",
        "amenity": "bicycle_rental",
        "capacity": "21",
        "name": "14 Málaga / Rapallo",
        "operator": "Bici Las Condes"
      },
      "geometry": {
        "type": "Point",
        "coordinates": [
          -70.5846361,
          -33.4207586
        ]
      }
    },
    {
      "type": "Feature",
      "id": "node/3459860426",
      "properties": {
        "@id": "node/3459860426",
        "amenity": "bicycle_rental",
        "capacity": "20",
        "name": "15 Sánchez Fontecilla / Martín de Zamora",
        "operator": "Bici Las Condes"
      },
      "geometry": {
        "type": "Point",
        "coordinates": [
          -70.592538,
          -33.4246263
        ]
      }
    },
    {
      "type": "Feature",
      "id": "node/3459860427",
      "properties": {
        "@id": "node/3459860427",
        "amenity": "bicycle_rental",
        "capacity": "21",
        "name": "24 Málaga / Cristóbal Colón",
        "operator": "Bici Las Condes"
      },
      "geometry": {
        "type": "Point",
        "coordinates": [
          -70.5832546,
          -33.4243298
        ]
      }
    },
    {
      "type": "Feature",
      "id": "node/3459860428",
      "properties": {
        "@id": "node/3459860428",
        "amenity": "bicycle_rental",
        "capacity": "19",
        "name": "Plaza Don Raúl Simón Bernard",
        "operator": "Bici Las Condes"
      },
      "geometry": {
        "type": "Point",
        "coordinates": [
          -70.5806634,
          -33.4237229
        ]
      }
    },
    {
      "type": "Feature",
      "id": "node/3459860429",
      "properties": {
        "@id": "node/3459860429",
        "amenity": "bicycle_rental",
        "capacity": "18",
        "name": "21 Isabel La Católica / Carlos V",
        "operator": "Bici Las Condes"
      },
      "geometry": {
        "type": "Point",
        "coordinates": [
          -70.5787467,
          -33.4272955
        ]
      }
    },
    {
      "type": "Feature",
      "id": "node/3459860430",
      "properties": {
        "@id": "node/3459860430",
        "amenity": "bicycle_rental",
        "capacity": "21",
        "name": "19 Alcantara / Vaticano",
        "operator": "Bici Las Condes"
      },
      "geometry": {
        "type": "Point",
        "coordinates": [
          -70.5846262,
          -33.4272527
        ]
      }
    },
    {
      "type": "Feature",
      "id": "node/3459860431",
      "properties": {
        "@id": "node/3459860431",
        "amenity": "bicycle_rental",
        "capacity": "21",
        "name": "20 Sánchez Fontecilla - Isabel La Católica",
        "operator": "Bici Las Condes"
      },
      "geometry": {
        "type": "Point",
        "coordinates": [
          -70.585406,
          -33.4305043
        ]
      }
    },
    {
      "type": "Feature",
      "id": "node/3487420811",
      "properties": {
        "@id": "node/3487420811",
        "amenity": "bicycle_rental",
        "covered": "no",
        "operator": "Bikesantiago"
      },
      "geometry": {
        "type": "Point",
        "coordinates": [
          -70.5982925,
          -33.455045
        ]
      }
    },
    {
      "type": "Feature",
      "id": "node/3645490044",
      "properties": {
        "@id": "node/3645490044",
        "amenity": "bicycle_rental",
        "capacity": "15",
        "name": "Irarrázaval / Agustín Vigorena",
        "network": "BikeSantiago",
        "payment:credit_cards": "no"
      },
      "geometry": {
        "type": "Point",
        "coordinates": [
          -70.5860527,
          -33.4553731
        ]
      }
    },
    {
      "type": "Feature",
      "id": "node/3645490045",
      "properties": {
        "@id": "node/3645490045",
        "addr:city": "Santiago",
        "addr:housenumber": "23",
        "addr:street": "Serrano",
        "amenity": "bicycle_rental",
        "capacity": "31",
        "name": "Metro Universidad de Chile",
        "network": "BikeSantiago",
        "payment:credit_cards": "no"
      },
      "geometry": {
        "type": "Point",
        "coordinates": [
          -70.649497,
          -33.4440988
        ]
      }
    },
    {
      "type": "Feature",
      "id": "node/3645518929",
      "properties": {
        "@id": "node/3645518929",
        "amenity": "bicycle_rental",
        "capacity": "15",
        "name": "Costanera Center 3",
        "network": "BikeSantiago",
        "payment:credit_cards": "no"
      },
      "geometry": {
        "type": "Point",
        "coordinates": [
          -70.6055095,
          -33.4168296
        ]
      }
    },
    {
      "type": "Feature",
      "id": "node/3645519612",
      "properties": {
        "@id": "node/3645519612",
        "amenity": "bicycle_rental",
        "capacity": "31",
        "name": "Metro Irarrázaval",
        "network": "BikeSantiago",
        "payment:credit_cards": "no"
      },
      "geometry": {
        "type": "Point",
        "coordinates": [
          -70.6281688,
          -33.4528552
        ]
      }
    },
    {
      "type": "Feature",
      "id": "node/3666075811",
      "properties": {
        "@id": "node/3666075811",
        "amenity": "bicycle_rental",
        "covered": "no",
        "operator": "Bikesantiago"
      },
      "geometry": {
        "type": "Point",
        "coordinates": [
          -70.6056705,
          -33.4539278
        ]
      }
    }
  ]
}